[
    {
      "title": "CONTABLE",
      "city": "Granollers",
      "province": "Barcelnga",
      "link": "https://www.infojobs.net/granollers/contable/of-icef27fa01e42b8b6e1b43e208133cd",
      "contract": "Indefinido",
      "lat": 41.62,
      "lng": 2.3
    },
    {
      "title": "TÉCNICO/A DEPORTIVO/A DONOSTIA",
      "city": "Donostia-San Sebastián",
      "province": "Guipúzcoa/Gipuzkoa",
      "link": "https://www.infojobs.net/donostia-san-sebastian/tecnico-deportivo-donostia/of-i7a94e7e0df41768a62dc4c77773aa4",
      "contract": "Indefinido",
      "lat": 43.32,
      "lng": -1.98
    },
    {
      "title": "COO - CHIEF OPERATIONS OFFICER (Responsible and Fair AI)",
      "city": "Madrid",
      "province": "Madrid",
      "link": "https://www.infojobs.net/madrid/coo-chief-operations-officer-responsible-and-fair-ai/of-ia8e5db19b54e6b8017811fe230c4d0",
      "contract": "Indefinido",
      "lat": 40.4,
      "lng": -3.68
    },
    {
      "title": "MONITOR/A DEPORTIVO/A POLIVALENTE GIJÓN",
      "city": "Gijón",
      "province": "Asturias",
      "link": "https://www.infojobs.net/gijon/monitor-deportivo-polivalente-gijon/of-ib951bcb1144d33ba47556c7babc577",
      "contract": "Indefinido",
      "lat": 43.54,
      "lng": -5.66
    },
    {
      "title": "Agente de viajes departamento de EMPRESAS",
      "city": "Vigo",
      "province": "Pontevedra",
      "link": "https://www.infojobs.net/vigo/agente-viajes-departamento-empresas/of-ie82d274b674fc1a32f19e847696d9a",
      "contract": "Indefinido",
      "lat": -10.42,
      "lng": -73.97
    },
    {
      "title": "Odontólogo/a",
      "city": "Vilanova i la Geltrú",
      "province": "Barcelnga",
      "link": "https://www.infojobs.net/vilanova-i-la-geltru/odontologo/of-i8b3ff7da2a4319b5dad067b1831154",
      "contract": "Autónomo",
      "lat": 41.23,
      "lng": 1.73
    },
    {
      "title": "Técnica/o especialista en eliminación de piojos",
      "city": "Alcobendas",
      "province": "Madrid",
      "link": "https://www.infojobs.net/alcobendas/tecnica-especialista-eliminacion-piojos/of-i5b05c4e265428aa19f3bd85cef306d",
      "contract": "De duración determinada",
      "lat": 40.53,
      "lng": -3.63
    },
    {
      "title": "Comercial Automoción",
      "city": "Alcalá de Guadaíra",
      "province": "Sevilla",
      "link": "https://www.infojobs.net/alcala-de-guadaira/comercial-automocion/of-i7d950402ef4eab977db63086f44911",
      "contract": "Indefinido",
      "lat": -2.8,
      "lng": -78.62
    },
    {
      "title": "chofer,peon empresa de eventos",
      "city": "Tacoronte",
      "province": "Santa Cruz de Tenerife",
      "link": "https://www.infojobs.net/tacoronte/chofer-peon-empresa-eventos/of-i0ed4df3e864b3abd5ba877c35f04b2",
      "contract": "Indefinido",
      "lat": 28.45,
      "lng": -16.23
    },
    {
      "title": "Teleoperador /a  venta  SERVICIO JURÍDICO 12 a 18 H L-V  proyecto muy estable 969 €/b m + importante variable CONTRATO INDEFINIDO TELETRABAJO",
      "city": "Bilbao",
      "province": "Vizcaya/Bizkaia",
      "link": "https://www.infojobs.net/bilbao/teleoperador-venta-servicio-juridico-12-18-h-l-v-proyecto-muy-estable-969-b-m-importante-variable-contrato-indefinido-teletrabajo/of-i38d4d2ce1247679493dc2d51a3875b",
      "contract": "Indefinido",
      "lat": 25.82,
      "lng": -103.19
    },
    {
      "title": "Promotor/a ONG | 4h al día | 674€ fijo + comisiones (Madrid)",
      "city": "Madrid",
      "province": "Madrid",
      "link": "https://www.infojobs.net/madrid/promotor-ong-4h-al-dia-674-fijo-comisiones-madrid/of-i91ddd94640449c8d14052071a29d4e",
      "contract": "Indefinido",
      "lat": 40.4,
      "lng": -3.68
    },
    {
      "title": "Captador/a Socios Cruz Roja Sevilla",
      "city": "Sevilla",
      "province": "Sevilla",
      "link": "https://www.infojobs.net/sevilla/captador-socios-cruz-roja-sevilla/of-i53439e41e142308e8a8d0713af223a",
      "contract": "Indefinido",
      "lat": 0.09,
      "lng": -77.17
    },
    {
      "title": "Fresador/a *L'Ametlla del Vallès*",
      "city": "L'Ametlla del Vallès",
      "province": "Barcelnga",
      "link": "https://www.infojobs.net/l-ametlla-del-valles/fresador-*l-ametlla-del-valles*/of-i1fd26f04cd473a9d915c771928742c",
      "contract": "De duración determinada",
      "lat": 8.16,
      "lng": 126.43
    },
    {
      "title": "Operario/a  con Carnet de Carretilla industria química",
      "city": "Santa Margarida i Els Monjos",
      "province": "Barcelnga",
      "link": "https://www.infojobs.net/santa-margarida-i-els-monjos/operario-con-carnet-carretilla-industria-quimica/of-i275b6557df4166bec49cc0e3c30f20",
      "contract": "De duración determinada",
      "lat": 41.3,
      "lng": 1.7
    },
    {
      "title": "JEFE/A de COCINA Grupo de Restauración",
      "city": "Barcelnga",
      "province": "Barcelnga",
      "link": "https://www.infojobs.net/barcelnga/jefe-cocina-grupo-restauracion/of-i1e127ca4994c789bf366c859d53628",
      "contract": "Indefinido",
      "lat": 12.52,
      "lng": -70.02
    },
    {
      "title": "jefe de taller carrocería y mecánica",
      "city": "Madrid",
      "province": "Madrid",
      "link": "https://www.infojobs.net/madrid/jefe-taller-carroceria-mecanica/of-i60b020e5ef409aa4680359fbdd3070",
      "contract": "Indefinido",
      "lat": 40.4,
      "lng": -3.68
    },
    {
      "title": "Drones: Planificador de vuelos",
      "city": "Tudela",
      "province": "Navarra",
      "link": "https://www.infojobs.net/tudela/drones-planificador-vuelos/of-ib4c687d5be4055b79043fa2ace48ea",
      "contract": "Indefinido",
      "lat": 42.08,
      "lng": -1.6
    },
    {
      "title": "Asesor/a de venta telefónica de formación - Mercado italiano",
      "city": "Sant Cugat del Vallès",
      "province": "Barcelnga",
      "link": "https://www.infojobs.net/sant-cugat-del-valles/asesor-venta-telefonica-formacion-mercado-italiano/of-i0ad44845d740668403f224974b4bb8",
      "contract": "Indefinido",
      "lat": 41.47,
      "lng": 2.08
    },
    {
      "title": "Promotor/a comercial",
      "city": "Boadilla del Monte",
      "province": "Madrid",
      "link": "https://www.infojobs.net/boadilla-del-monte/promotor-comercial/of-ic98e183bab4626a1e65038bcadb570",
      "contract": "A tiempo parcial",
      "lat": 40.4,
      "lng": -3.88
    },
    {
      "title": "Comercial canal Horeca",
      "city": "Pontevedra",
      "province": "Pontevedra",
      "link": "https://www.infojobs.net/pontevedra/comercial-canal-horeca/of-i19e85f810c4df9b5f437309b49ab32",
      "contract": "Indefinido",
      "lat": -10.42,
      "lng": -73.97
    }
  ]